[
  {
    "id": "local_1",
    "nome": "Clínica Veterinária Bicho no Pé (Dr. Wadinho)",
    "tipo": "veterinaria",
    "lat": -21.4072,
    "lng": -48.5081,
    "endereco": "Rua Major Calderazzo, 697-A - Centro, Taquaritinga",
    "whatsapp": "1632520000",
    "horario": "Seg-Sex: Horários diferenciados | Emergência 24h",
    "rating": "4.9",
    "icone": "fa-user-doctor",
    "cor": "#e74c3c",
    "origem": "banco_local"
  },
  {
    "id": "local_2",
    "nome": "S.O.S VET Clínica Veterinária",
    "tipo": "veterinaria",
    "lat": -21.4055,
    "lng": -48.5060,
    "endereco": "Rua Marechal Deodoro, 1288 - Centro, Taquaritinga",
    "whatsapp": "16999990003",
    "horario": "Consultas, vacinas e cirurgias",
    "rating": "4.5",
    "icone": "fa-user-doctor",
    "cor": "#e74c3c",
    "origem": "banco_local"
  },
  {
    "id": "local_3",
    "nome": "Cenavet Estética Animal",
    "tipo": "veterinaria",
    "lat": -21.4058,
    "lng": -48.5055,
    "endereco": "Rua Marechal Deodoro, 1499-B - Centro, Taquaritinga",
    "whatsapp": "16997463896",
    "horario": "Seg-Sex: 09:00-18:00",
    "rating": "4.6",
    "icone": "fa-scissors",
    "cor": "#e74c3c",
    "origem": "banco_local"
  },
  {
    "id": "local_4",
    "nome": "Empório Animal",
    "tipo": "petshop",
    "lat": -21.4035,
    "lng": -48.5045,
    "endereco": "Praça Aimone Salerno - Centro, Taquaritinga",
    "whatsapp": "1632524394",
    "horario": "Rações, acessórios e produtos pet",
    "rating": "4.3",
    "icone": "fa-bone",
    "cor": "#3498db",
    "origem": "banco_local"
  },
  {
    "id": "local_5",
    "nome": "Horto Florestal de Taquaritinga",
    "tipo": "lazer",
    "lat": -21.3900,
    "lng": -48.5200,
    "endereco": "Via de Acesso S/N - Taquaritinga",
    "whatsapp": "",
    "horario": "Aberto ao público",
    "rating": "4.8",
    "icone": "fa-tree",
    "cor": "#27ae60",
    "origem": "banco_local"
  },
  {
    "id": "local_6",
    "nome": "Parque Municipal Prefeito Ernesto Salvagni",
    "tipo": "lazer",
    "lat": -21.3960,
    "lng": -48.5100,
    "endereco": "Parque Municipal Prefeito Ernesto Salvagni - Taquaritinga",
    "whatsapp": "",
    "horario": "Caminhada e trilha",
    "rating": "4.1",
    "icone": "fa-tree",
    "cor": "#27ae60",
    "origem": "banco_local"
  }
]